{
"type": "FeatureCollection",
"name": "ArcGIS_Ado",
"features": [
{ "type": "Feature", "properties": { "latitude": "7.6166", "longitude": "5.1781", "Direction Links": "https://goo.gl/maps/mR4YWFsUGSyTZERm8", "STATE": "EKITI", "LGA": "ADO EKITI", "LGA CODE": "1", "RA": "ADO 'M' FARM SETTLEMENT", "RA CODE": "13", "PU CODE": "13/01/13/001", "PU NAME": "AT CAMP (ILA NLA) / ITANLA" }, "geometry": null },
{ "type": "Feature", "properties": { "latitude": "7.5965", "longitude": "5.1661", "Direction Links": "https://goo.gl/maps/8nanDibXSSagQA6V9", "STATE": "EKITI", "LGA": "ADO EKITI", "LGA CODE": "1", "RA": "ADO 'M' FARM SETTLEMENT", "RA CODE": "13", "PU CODE": "13/01/13/002", "PU NAME": "AT OKEREPA CAMP./ OKE EPA" }, "geometry": null },
{ "type": "Feature", "properties": { "latitude": "7.5833", "longitude": "5.1671", "Direction Links": "https://goo.gl/maps/q3CtWupi4ELLBHL36", "STATE": "EKITI", "LGA": "ADO EKITI", "LGA CODE": "1", "RA": "ADO 'M' FARM SETTLEMENT", "RA CODE": "13", "PU CODE": "13/01/13/003", "PU NAME": "AT OKE ASO COMP. / OKE ASO" }, "geometry": null },
{ "type": "Feature", "properties": { "latitude": "7.5918", "longitude": "5.1739", "Direction Links": "https://goo.gl/maps/WK1PtCTyAmuEZsydA", "STATE": "EKITI", "LGA": "ADO EKITI", "LGA CODE": "1", "RA": "ADO 'M' FARM SETTLEMENT", "RA CODE": "13", "PU CODE": "13/01/13/004", "PU NAME": "AT AMUJAGBA / AMUJAGBA" }, "geometry": null },
{ "type": "Feature", "properties": { "latitude": "7.5841", "longitude": "5.1848", "Direction Links": "https://goo.gl/maps/uLpPLo23Z3qqg7m78", "STATE": "EKITI", "LGA": "ADO EKITI", "LGA CODE": "1", "RA": "ADO 'M' FARM SETTLEMENT", "RA CODE": "13", "PU CODE": "13/01/13/005", "PU NAME": "OKE OSUN AREA / OKE OSUN" }, "geometry": null },
{ "type": "Feature", "properties": { "latitude": "7.5754", "longitude": "5.1591", "Direction Links": "https://goo.gl/maps/8M7QNVgafRWJcneR7", "STATE": "EKITI", "LGA": "ADO EKITI", "LGA CODE": "1", "RA": "ADO 'M' FARM SETTLEMENT", "RA CODE": "13", "PU CODE": "13/01/13/006", "PU NAME": "AT OLORA COMP. / OLORA COMP." }, "geometry": null },
{ "type": "Feature", "properties": { "latitude": "7.5844", "longitude": "5.1626", "Direction Links": "https://goo.gl/maps/kPinhT23RZekVT9Z7", "STATE": "EKITI", "LGA": "ADO EKITI", "LGA CODE": "1", "RA": "ADO 'M' FARM SETTLEMENT", "RA CODE": "13", "PU CODE": "13/01/13/007", "PU NAME": "AT ADEMILUYI COMP. / ADEMILUYI'S COMP." }, "geometry": null },
{ "type": "Feature", "properties": { "latitude": "7.5734", "longitude": "5.2118", "Direction Links": "https://goo.gl/maps/bPPhqqkUzMPbxexX8", "STATE": "EKITI", "LGA": "ADO EKITI", "LGA CODE": "1", "RA": "ADO 'M' FARM SETTLEMENT", "RA CODE": "13", "PU CODE": "13/01/13/008", "PU NAME": "AT AJEBAMIDELE COMP. / AJEBAMIDELE" }, "geometry": null },
{ "type": "Feature", "properties": { "latitude": "7.5548", "longitude": "5.1584", "Direction Links": "https://goo.gl/maps/3hWCRpbZoWBFcjFu5", "STATE": "EKITI", "LGA": "ADO EKITI", "LGA CODE": "1", "RA": "ADO 'M' FARM SETTLEMENT", "RA CODE": "13", "PU CODE": "13/01/13/009", "PU NAME": "ADUGBOKUN COMP. / ADUGBOKUN" }, "geometry": null },
{ "type": "Feature", "properties": { "latitude": "7.6128", "longitude": "5.1309", "Direction Links": "https://goo.gl/maps/FuBdumad8bEUgf1Z9", "STATE": "EKITI", "LGA": "ADO EKITI", "LGA CODE": "1", "RA": "ADO 'M' FARM SETTLEMENT", "RA CODE": "13", "PU CODE": "13/01/13/010", "PU NAME": "ODO PRY. SCH. / ODO VILLAGE" }, "geometry": null },
{ "type": "Feature", "properties": { "latitude": "7.5802", "longitude": "5.1678", "Direction Links": "https://goo.gl/maps/gimtBRkUt8SutKC2A", "STATE": "EKITI", "LGA": "ADO EKITI", "LGA CODE": "1", "RA": "ADO 'M' FARM SETTLEMENT", "RA CODE": "13", "PU CODE": "13/01/13/011", "PU NAME": "IN FRONT OF ABA ALAGA / IFESOWAPO" }, "geometry": null },
{ "type": "Feature", "properties": { "latitude": "7.5505", "longitude": "5.2936", "Direction Links": "https://goo.gl/maps/4BZFmmuXJ3Xcvx2dA", "STATE": "EKITI", "LGA": "ADO EKITI", "LGA CODE": "1", "RA": "ADO 'M' FARM SETTLEMENT", "RA CODE": "13", "PU CODE": "13/01/13/012", "PU NAME": "IN FRONT OF ADEPOJU'S HOUSE / IDEGBE" }, "geometry": null },
{ "type": "Feature", "properties": { "latitude": "7.5801", "longitude": "5.2694", "Direction Links": "https://goo.gl/maps/C3nLHVZSmtKvdizH7", "STATE": "EKITI", "LGA": "ADO EKITI", "LGA CODE": "1", "RA": "ADO 'M' FARM SETTLEMENT", "RA CODE": "13", "PU CODE": "13/01/13/013", "PU NAME": "IGIMOKOGO PRY. SCH. / IGIMOKOGO" }, "geometry": null },
{ "type": "Feature", "properties": { "latitude": "7.5817", "longitude": "5.3366", "Direction Links": "https://goo.gl/maps/ez4iF2UCjfqDRFtc9", "STATE": "EKITI", "LGA": "ADO EKITI", "LGA CODE": "1", "RA": "ADO 'M' FARM SETTLEMENT", "RA CODE": "13", "PU CODE": "13/01/13/014", "PU NAME": "AT ATEGBADO VILLAGE / RESERVE VILLAGE" }, "geometry": null },
{ "type": "Feature", "properties": { "latitude": "7.5873", "longitude": "5.2846", "Direction Links": "https://goo.gl/maps/mbL6UuEYSUgZ3zQHA", "STATE": "EKITI", "LGA": "ADO EKITI", "LGA CODE": "1", "RA": "ADO 'M' FARM SETTLEMENT", "RA CODE": "13", "PU CODE": "13/01/13/015", "PU NAME": "AT ITALAORO CAMP. / ITALAORO COMP." }, "geometry": null },
{ "type": "Feature", "properties": { "latitude": "7.6018", "longitude": "5.2399", "Direction Links": "https://goo.gl/maps/KfC43m1pgh7Vd4A59", "STATE": "EKITI", "LGA": "ADO EKITI", "LGA CODE": "1", "RA": "ADO 'M' FARM SETTLEMENT", "RA CODE": "13", "PU CODE": "13/01/13/016", "PU NAME": "IN FRONT OF SEDU'S HOUSE / ITA EKU" }, "geometry": null },
{ "type": "Feature", "properties": { "latitude": "7.5851", "longitude": "5.2506", "Direction Links": "https://goo.gl/maps/rif5j5for8fNpAre8", "STATE": "EKITI", "LGA": "ADO EKITI", "LGA CODE": "1", "RA": "ADO 'M' FARM SETTLEMENT", "RA CODE": "13", "PU CODE": "13/01/13/017", "PU NAME": "IN FRONT OF MOMODU'S COMP. / OMI OLOKO" }, "geometry": null },
{ "type": "Feature", "properties": { "latitude": "7.6078", "longitude": "5.2728", "Direction Links": "https://goo.gl/maps/XYk3mTA4vywtRueK6", "STATE": "EKITI", "LGA": "ADO EKITI", "LGA CODE": "1", "RA": "ADO 'M' FARM SETTLEMENT", "RA CODE": "13", "PU CODE": "13/01/13/018", "PU NAME": "AT UNITY SEC. SCH. / ERINFUN / UNITY SEC. SCH. IREJE" }, "geometry": null },
{ "type": "Feature", "properties": { "latitude": "7.6032", "longitude": "5.2885", "Direction Links": "https://goo.gl/maps/uqJpHnKdtE2NdAyo9", "STATE": "EKITI", "LGA": "ADO EKITI", "LGA CODE": "1", "RA": "ADO 'M' FARM SETTLEMENT", "RA CODE": "13", "PU CODE": "13/01/13/019", "PU NAME": "PRY. SCH., AGO IGBIRA, ERINFUN / ERINFUN" }, "geometry": null },
{ "type": "Feature", "properties": { "latitude": "7.5533", "longitude": "5.2618", "Direction Links": "https://goo.gl/maps/vHkpFvd2i7rCWvo7A", "STATE": "EKITI", "LGA": "ADO EKITI", "LGA CODE": "1", "RA": "ADO 'M' FARM SETTLEMENT", "RA CODE": "13", "PU CODE": "13/01/13/020", "PU NAME": "PRY. SCH., IGIRIGIRI / AYOKO, IGIRIGIRI" }, "geometry": null },
{ "type": "Feature", "properties": { "latitude": "7.6246", "longitude": "5.288", "Direction Links": "https://goo.gl/maps/PCbogbZb45hAfYpy5", "STATE": "EKITI", "LGA": "ADO EKITI", "LGA CODE": "1", "RA": "ADO 'M' FARM SETTLEMENT", "RA CODE": "13", "PU CODE": "13/01/13/021", "PU NAME": "IN FRONT OF ADUBIARO COMP. / EMIRIN" }, "geometry": null },
{ "type": "Feature", "properties": { "latitude": "7.5963", "longitude": "5.2946", "Direction Links": "https://goo.gl/maps/ZCQRXHk4eyHD31Zc9", "STATE": "EKITI", "LGA": "ADO EKITI", "LGA CODE": "1", "RA": "ADO 'M' FARM SETTLEMENT", "RA CODE": "13", "PU CODE": "13/01/13/022", "PU NAME": "FEDERAL POLT. COMP. / FED. POLY, AGO OLOGUNJA" }, "geometry": null },
{ "type": "Feature", "properties": { "latitude": "7.6035", "longitude": "5.331", "Direction Links": "https://goo.gl/maps/NsMX3gfPwfATrj5k8", "STATE": "EKITI", "LGA": "ADO EKITI", "LGA CODE": "1", "RA": "ADO 'M' FARM SETTLEMENT", "RA CODE": "13", "PU CODE": "13/01/13/023", "PU NAME": "PRY. SCH. AGO ADULOJU / AGO ADUGBOKUN , ADULOJU" }, "geometry": null },
{ "type": "Feature", "properties": { "latitude": "7.6506", "longitude": "5.3273", "Direction Links": "https://goo.gl/maps/5E1Eh1bxUwcQ2r3Z8", "STATE": "EKITI", "LGA": "ADO EKITI", "LGA CODE": "1", "RA": "ADO 'M' FARM SETTLEMENT", "RA CODE": "13", "PU CODE": "13/01/13/024", "PU NAME": "PRY. SCH., IGBOGUN/ IGBOGUN VILLAGE" }, "geometry": null },
{ "type": "Feature", "properties": { "latitude": "7.6183", "longitude": "5.351", "Direction Links": "https://goo.gl/maps/eERVebnamrqJm1Er9", "STATE": "EKITI", "LGA": "ADO EKITI", "LGA CODE": "1", "RA": "ADO 'M' FARM SETTLEMENT", "RA CODE": "13", "PU CODE": "13/01/13/025", "PU NAME": "PRY. SCH. AGO AYEGUNLE / AGO AYEGUNLE , AGO ARAROMI" }, "geometry": null },
{ "type": "Feature", "properties": { "latitude": "7.5831", "longitude": "5.3705", "Direction Links": "https://goo.gl/maps/HD7z5yap3NGV82pY6", "STATE": "EKITI", "LGA": "ADO EKITI", "LGA CODE": "1", "RA": "ADO 'M' FARM SETTLEMENT", "RA CODE": "13", "PU CODE": "13/01/13/026", "PU NAME": "IN FRONT OF OMOSIO'S COMP. / KAJOLA" }, "geometry": null },
{ "type": "Feature", "properties": { "latitude": "7.569244903", "longitude": "5.205853209", "Direction Links": "https://goo.gl/maps/gaReu2tsD6UjRbpB9", "STATE": "EKITI", "LGA": "ADO EKITI", "LGA CODE": "1", "RA": "ADO 'M' FARM SETTLEMENT", "RA CODE": "13", "PU CODE": "13/01/13/027", "PU NAME": "open space at Shiloh junction/ajebamidele." }, "geometry": null },
{ "type": "Feature", "properties": { "latitude": "7.57272996", "longitude": "5.206021853", "Direction Links": "https://goo.gl/maps/8ayxjGVDuxs5xAtR7", "STATE": "EKITI", "LGA": "ADO EKITI", "LGA CODE": "1", "RA": "ADO 'M' FARM SETTLEMENT", "RA CODE": "13", "PU CODE": "13/01/13/028", "PU NAME": "Open space at pastor Bello Area/ Estate Junction Rd.4 Ajebamidele" }, "geometry": null },
{ "type": "Feature", "properties": { "latitude": "7.563566586", "longitude": "5.211673267", "Direction Links": "https://goo.gl/maps/S1LaMARdpVvC8myV7", "STATE": "EKITI", "LGA": "ADO EKITI", "LGA CODE": "1", "RA": "ADO 'M' FARM SETTLEMENT", "RA CODE": "13", "PU CODE": "13/01/13/029", "PU NAME": "open space at Golden avenue community/ opp pastoral center." }, "geometry": null },
{ "type": "Feature", "properties": { "latitude": "7.600005555", "longitude": "5.243610665", "Direction Links": "https://goo.gl/maps/QEbxHmGJ1md9KpnJA", "STATE": "EKITI", "LGA": "ADO EKITI", "LGA CODE": "1", "RA": "ADO 'M' FARM SETTLEMENT", "RA CODE": "13", "PU CODE": "13/01/13/030", "PU NAME": " open space at aladesun area/near second mask itaekun." }, "geometry": null },
{ "type": "Feature", "properties": { "latitude": "7.610313338", "longitude": "5.274413154", "Direction Links": "https://goo.gl/maps/vhhT3imhujsYEjki8", "STATE": "EKITI", "LGA": "ADO EKITI", "LGA CODE": "1", "RA": "ADO 'M' FARM SETTLEMENT", "RA CODE": "13", "PU CODE": "13/01/13/031", "PU NAME": "at unity secondary School erifun/ureje II." }, "geometry": null },
{ "type": "Feature", "properties": { "latitude": "7.611261787", "longitude": "5.270950086", "Direction Links": "https://goo.gl/maps/K9ZPAyodVKD18ck69", "STATE": "EKITI", "LGA": "ADO EKITI", "LGA CODE": "1", "RA": "ADO 'M' FARM SETTLEMENT", "RA CODE": "13", "PU CODE": "13/01/13/032", "PU NAME": "D.T.C demonstration primary school Emirin/Ureje." }, "geometry": null },
{ "type": "Feature", "properties": { "latitude": "7.605733239", "longitude": "5.287735015", "Direction Links": "https://goo.gl/maps/JCo9KbrAcoEENqr96", "STATE": "EKITI", "LGA": "ADO EKITI", "LGA CODE": "1", "RA": "ADO 'M' FARM SETTLEMENT", "RA CODE": "13", "PU CODE": "13/01/13/033", "PU NAME": "open space at basic health center erinfun." }, "geometry": null },
{ "type": "Feature", "properties": { "latitude": "7.599898212", "longitude": "5.309746563", "Direction Links": "https://goo.gl/maps/zbUqMnHq8a1xApUr5", "STATE": "EKITI", "LGA": "ADO EKITI", "LGA CODE": "1", "RA": "ADO 'M' FARM SETTLEMENT", "RA CODE": "13", "PU CODE": "13/01/13/034", "PU NAME": "open space at ago coner/opp ABUAD Hospital" }, "geometry": null }
]
}
